ISO_Code;Port_Name;Longitude;Latitude
IRL;Dublin Port;-6.208;53.351
USA;Port of New York;-74.004;40.689
ESP;Port of Barcelona;2.186;41.375
PRT;Port of Sines;-8.868;37.957
GBR;Port of Felixstowe;1.319;51.961
FRA;Port of Le Havre;0.180;49.488
DEU;Port of Hamburg;9.969;53.538
ITA;Port of Genoa;8.900;44.400
JPN;Port of Yokohama;139.670;35.450
JAM;Port of Kingston;-76.790;17.960